[
	{
		"id": 1,
		"title": "Фестиваль уличной еды",
		"description": "Праздник для гурманов с разнообразием уличной еды и живой музыкой.",
		"city": "Москва",
		"region": "Москва",
		"date": "2024-07-15",
		"category": "Культура и отдых",
		"coordinates": {
			"latitude": 55.7558,
			"longitude": 37.6173
		},
		"address": "Красная площадь, Москва, Россия"
	},
	{
		"id": 2,
		"title": "Конференция IT-стартапов",
		"description": "Встреча молодых предпринимателей и инвесторов в сфере IT.",
		"city": "Санкт-Петербург",
		"region": "Ленинградская область",
		"date": "2024-08-20",
		"category": "Бизнес и технологии",
		"coordinates": {
			"latitude": 59.9311,
			"longitude": 30.3609
		},
		"address": "Невский проспект, 1, Санкт-Петербург, Россия"
	},
	{
		"id": 3,
		"title": "Музыкальный фестиваль 'Лето Звуков'",
		"description": "Трёхдневный музыкальный фестиваль с участием популярных исполнителей.",
		"city": "Казань",
		"region": "Татарстан",
		"date": "2024-07-25",
		"category": "Музыка",
		"coordinates": {
			"latitude": 55.794,
			"longitude": 49.1056
		},
		"address": "Центральный парк культуры и отдыха им. Горького, Казань, Россия"
	},
	{
		"id": 4,
		"title": "Форум волонтёров",
		"description": "Обсуждение волонтёрских проектов и обмен опытом среди участников.",
		"city": "Новосибирск",
		"region": "Новосибирская область",
		"date": "2024-09-10",
		"category": "Общество",
		"coordinates": {
			"latitude": 55.0084,
			"longitude": 82.9357
		},
		"address": "Площадь Ленина, Новосибирск, Россия"
	},
	{
		"id": 5,
		"title": "Спортивные игры молодёжи",
		"description": "Соревнования по различным видам спорта среди молодежи.",
		"city": "Екатеринбург",
		"region": "Свердловская область",
		"date": "2024-08-05",
		"category": "Спорт",
		"coordinates": {
			"latitude": 56.8389,
			"longitude": 60.6057
		},
		"address": "Центральный стадион, Екатеринбург, Россия"
	},
	{
		"id": 6,
		"title": "Театральный фестиваль",
		"description": "Выступления театральных коллективов из разных регионов России.",
		"city": "Ростов-на-Дону",
		"region": "Ростовская область",
		"date": "2024-09-15",
		"category": "Театр",
		"coordinates": {
			"latitude": 47.2357,
			"longitude": 39.7015
		},
		"address": "Театральная площадь, Ростов-на-Дону, Россия"
	},
	{
		"id": 7,
		"title": "Выставка молодых художников",
		"description": "Экспозиция работ молодых и талантливых художников.",
		"city": "Владивосток",
		"region": "Приморский край",
		"date": "2024-08-30",
		"category": "Искусство",
		"coordinates": {
			"latitude": 43.1155,
			"longitude": 131.8855
		},
		"address": "Центральная площадь, Владивосток, Россия"
	},
	{
		"id": 8,
		"title": "Фестиваль уличного кино",
		"description": "Показ короткометражных фильмов под открытым небом.",
		"city": "Самара",
		"region": "Самарская область",
		"date": "2024-07-22",
		"category": "Кино",
		"coordinates": {
			"latitude": 53.2415,
			"longitude": 50.2212
		},
		"address": "Площадь Куйбышева, Самара, Россия"
	},
	{
		"id": 9,
		"title": "Молодёжный форум 'Будущее России'",
		"description": "Обсуждение актуальных вопросов и перспектив развития страны.",
		"city": "Нижний Новгород",
		"region": "Нижегородская область",
		"date": "2024-09-05",
		"category": "Образование",
		"coordinates": {
			"latitude": 56.3269,
			"longitude": 44.0059
		},
		"address": "Площадь Минина и Пожарского, Нижний Новгород, Россия"
	},
	{
		"id": 10,
		"title": "Эко-фестиваль",
		"description": "Мероприятие, посвященное экологическим инициативам и проектам.",
		"city": "Краснодар",
		"region": "Краснодарский край",
		"date": "2024-08-10",
		"category": "Экология",
		"coordinates": {
			"latitude": 45.0355,
			"longitude": 38.9753
		},
		"address": "Парк Галицкого, Краснодар, Россия"
	}
]
